name,country,state_or_region,city,latitude,longitude,website_url,notes
3 Peaks Dolomites,Italy,Italy,Castelrotto BZ,46.729,12.324,https://www.dolomitisuperski.com/en,Physical member of the Dolomiti Superski marketed/shared-access Ikon destination; coordinates from official Ikon CMS where available.
ABLE Hakuba Goryu Snow Resort,Japan,Nagano,Hakuba/Otari,36.662,137.836,https://www.hakubavalley.com/,Physical Hakuba Valley member resort; coordinates approximate ski-area/base location from map/geocoding references.
APPI Resort,Japan,Japan,Iwate Prefecture,39.99779,140.96633,https://www.appi.co.jp/snow-mountain-resort/,Ikon destination/resort row sourced from official Ikon CMS; coordinates are Ikon-published destination/base coordinates where available.
Afton Alps,United States,Minnesota,Hastings,44.8541,-92.7878,https://www.aftonalps.com/,Full Epic Pass access modeled as unlimited and unrestricted at this Vail Resorts owned/operated destination for the 2026-2027 season; source page lists the resort among Epic Pass resort destinations. No full Epic Pass restricted peak dates modeled.
Alpe Cimbra Folgaria Lavarone,Italy,Trentino,,45.918,11.171,https://www.skirama.it/,Physical/member ski area within Skirama Dolomiti; coordinates approximate resort/base area from map/geocoding references.
Alpe Lusia – San Pellegrino,Italy,Italy,Castelrotto BZ,46.379,11.786,https://www.dolomitisuperski.com/en,Physical member of the Dolomiti Superski marketed/shared-access Ikon destination; coordinates from official Ikon CMS where available.
Alpental,United States,Washington,North Bend,47.439954,-121.435699,https://summitatsnoqualmie.com/alpental,Physical member of the The Summit at Snoqualmie marketed/shared-access Ikon destination; coordinates from official Ikon CMS where available.
Alpine Meadows,United States,California,Alpine Meadows,39.1646,-120.2381,https://www.palisadestahoe.com/,Second primary base area/mountain under the Palisades Tahoe destination; pass access shared with Palisades Tahoe.
Alpine Valley (OH),United States,Ohio,Chesterland,41.5261,-81.2536,https://www.alpinevalleyohio.com/,Full Epic Pass access modeled as unlimited and unrestricted at this Vail Resorts owned/operated destination for the 2026-2027 season; source page lists the resort among Epic Pass resort destinations. No full Epic Pass restricted peak dates modeled.
Alta Badia,Italy,Italy,Castelrotto BZ,46.551,11.879,https://www.dolomitisuperski.com/en,Physical member of the Dolomiti Superski marketed/shared-access Ikon destination; coordinates from official Ikon CMS where available.
Alta Ski Area,United States,Utah,Alta,40.5895561,-111.63663700000001,https://www.alta.com/ikon,Ikon destination/resort row sourced from official Ikon CMS; coordinates are Ikon-published destination/base coordinates where available.
Alyeska Resort,United States,Alaska,Girdwood,60.96174,-149.09387,https://www.alyeskaresort.com/,Ikon destination/resort row sourced from official Ikon CMS; coordinates are Ikon-published destination/base coordinates where available.
Andermatt-Sedrun-Disentis,Switzerland,Uri/Grisons,Andermatt,46.6356,8.593,https://www.epicpass.com/regions/europe/switzerland/andermatt-sedrun-disentis.aspx,Full Epic Pass access modeled as unlimited and unrestricted at this European Epic destination; official Epic Europe page identifies unlimited access for Epic Pass holders. Ticket-window/media-card procedures may apply.
Annupuri,Japan,Abuta-gun,Niseko-cho,42.8047045,140.68749309999998,http://www.niseko.ne.jp/en/,Physical member of the Niseko United marketed/shared-access Ikon destination; coordinates from official Ikon CMS where available.
Arabba/Marmolada,Italy,Italy,Castelrotto BZ,46.497,11.874,https://www.dolomitisuperski.com/en,Physical member of the Dolomiti Superski marketed/shared-access Ikon destination; coordinates from official Ikon CMS where available.
Arai Mountain Resort,Japan,Japan,Niigata Prefecture,36.99,138.18,https://www.lottehotel.com/arai-resort/en/ski-webzine.html,Ikon destination/resort row sourced from official Ikon CMS; coordinates are Ikon-published destination/base coordinates where available.
Arapahoe Basin,United States,Colorado,Dillon,39.631106,-105.874058,https://www.arapahoebasin.com,Ikon destination/resort row sourced from official Ikon CMS; coordinates are Ikon-published destination/base coordinates where available.
Aspen Highlands,United States,Colorado,Aspen,39.1822,-106.8557,https://www.aspensnowmass.com/our-mountains/aspen-highlands/,"One of four physical mountains marketed together as Aspen Snowmass; pass access is generally shared across Aspen Mountain, Snowmass, Aspen Highlands, and Buttermilk."
Aspen Mountain,United States,Colorado,Aspen,39.1869,-106.8186,https://www.aspensnowmass.com/our-mountains/aspen-mountain/,"One of four physical mountains marketed together as Aspen Snowmass; pass access is generally shared across Aspen Mountain, Snowmass, Aspen Highlands, and Buttermilk."
Attitash Mountain,United States,New Hampshire,Bartlett,44.0826,-71.2295,https://www.attitash.com/,Full Epic Pass access modeled as unlimited and unrestricted at this Vail Resorts owned/operated destination for the 2026-2027 season; source page lists the resort among Epic Pass resort destinations. No full Epic Pass restricted peak dates modeled.
Banff Sunshine,Canada,Alberta,Banff National Park,51.111841,-115.744665,https://www.skibanff.com/,Physical member of the SkiBig3 marketed/shared-access Ikon destination; coordinates from official Ikon CMS where available.
Bear Mountain,United States,California,Big Bear Lake,34.223238,-116.862169,https://www.bigbearmountainresort.com/,Physical member of the Big Bear Mountain Resort marketed/shared-access Ikon destination; coordinates from official Ikon CMS where available.
Beaver Creek,United States,Colorado,Avon,39.6042,-106.5165,https://www.beavercreek.com/,Full Epic Pass access modeled as unlimited and unrestricted at this Vail Resorts owned/operated destination for the 2026-2027 season; source page lists the resort among Epic Pass resort destinations. No full Epic Pass restricted peak dates modeled.
Big Boulder,United States,Pennsylvania,Lake Harmony,41.0508,-75.6008,https://www.jfbb.com/,Full Epic Pass access modeled as unlimited and unrestricted at this Vail Resorts owned/operated destination for the 2026-2027 season; source page lists the resort among Epic Pass resort destinations. No full Epic Pass restricted peak dates modeled.
Big Sky Resort,United States,Montana,Big Sky,45.2850,-111.4017,https://www.bigskyresort.com/,Physical resort at Big Sky Mountain Village; Lone Peak Tram access can have separate product rules not modeled here.
Blackcomb Mountain,Canada,British Columbia,Whistler,50.08,-122.894,https://www.whistlerblackcomb.com/,Physical mountain within Whistler Blackcomb; coordinates approximate main ski-area/base or mountain reference point.
Blue Mountain,Canada,Ontario,Blue Mountains,44.505843,-80.317558,https://www.bluemountain.ca/,Ikon destination/resort row sourced from official Ikon CMS; coordinates are Ikon-published destination/base coordinates where available.
Blue Mountain Resort,United States,Pennsylvania,Palmerton,40.810667070811405,-75.52078311165438,https://www.skibluemt.com/,Ikon destination/resort row sourced from official Ikon CMS; coordinates are Ikon-published destination/base coordinates where available.
Boston Mills,United States,Ohio,Peninsula,41.2646,-81.5651,https://www.bmbw.com/,Full Epic Pass access modeled as unlimited and unrestricted at this Vail Resorts owned/operated destination for the 2026-2027 season; source page lists the resort among Epic Pass resort destinations. No full Epic Pass restricted peak dates modeled.
Boyne Mountain,United States,Michigan,Boyne Falls,45.162884,-84.93006700000001,http://www.boynemountain.com,Ikon destination/resort row sourced from official Ikon CMS; coordinates are Ikon-published destination/base coordinates where available.
Brandywine,United States,Ohio,Sagamore Hills,41.264,-81.556,https://www.bmbw.com/,Full Epic Pass access modeled as unlimited and unrestricted at this Vail Resorts owned/operated destination for the 2026-2027 season; source page lists the resort among Epic Pass resort destinations. No full Epic Pass restricted peak dates modeled.
Breckenridge,United States,Colorado,Breckenridge,39.4806,-106.0660,https://www.breckenridge.com/,Approximate Peak 8/base-area coordinate from map/geocoding references; revalidate against resort GIS if high precision is required.
Brides-les-Bains,France,Savoie,,45.452,6.569,https://www.les3vallees.com/,Physical/member ski area within Les 3 Vallées; coordinates approximate resort/base area from map/geocoding references.
Brighton,United States,Utah,Brighton,40.598166,-111.5829,http://www.brightonresort.com,Ikon destination/resort row sourced from official Ikon CMS; coordinates are Ikon-published destination/base coordinates where available.
Buttermilk,United States,Colorado,Aspen,39.2053,-106.8603,https://www.aspensnowmass.com/our-mountains/buttermilk/,"One of four physical mountains marketed together as Aspen Snowmass; pass access is generally shared across Aspen Mountain, Snowmass, Aspen Highlands, and Buttermilk."
Camelback Resort,United States,Pennsylvania,Tannersville,41.051389,-75.355278,https://www.camelbackresort.com/,Ikon destination/resort row sourced from official Ikon CMS; coordinates are Ikon-published destination/base coordinates where available.
Cervino Ski Paradise,Italy,Italy,Cervinia,,,https://www.skilife.ski/en/,Physical member of the Valle d’Aosta marketed/shared-access Ikon destination; coordinates from official Ikon CMS where available.
Chamonix Mont-Blanc Valley,France,Haute Savoie,Chamonix-Mont-Blanc,45.92328,6.868141,https://www.montblancnaturalresort.com/fr/,Placeholder physical/destination row pending member-area decomposition; do not use for fine-grained weather comparisons until split.
Civetta,Italy,Italy,Val Di Zoldo,46.37836,12.04852,https://www.dolomitisuperski.com/en,Physical member of the Dolomiti Superski marketed/shared-access Ikon destination; coordinates from official Ikon CMS where available.
Copper Mountain,United States,Colorado,Frisco,39.502141,-106.15099520000001,http://www.coppercolorado.com/,Ikon destination/resort row sourced from official Ikon CMS; coordinates are Ikon-published destination/base coordinates where available.
Coronet Peak,New Zealand,New Zealand,Queenstown,-44.920557,168.737523,https://www.coronetpeak.co.nz/,"Physical member of the Coronet Peak, The Remarkables, Mt Hutt marketed/shared-access Ikon destination; coordinates from official Ikon CMS where available."
Cortina d’Ampezzo,Italy,Italy,Castelrotto BZ,46.539,12.137,https://www.dolomitisuperski.com/en,Physical member of the Dolomiti Superski marketed/shared-access Ikon destination; coordinates from official Ikon CMS where available.
Courchevel,France,Savoie,,45.415,6.634,https://www.les3vallees.com/,Physical/member ski area within Les 3 Vallées; coordinates approximate resort/base area from map/geocoding references.
Courmayeur Mont Blanc,Italy,Italy,Courmayeur,,,https://www.skilife.ski/en/,Physical member of the Valle d’Aosta marketed/shared-access Ikon destination; coordinates from official Ikon CMS where available.
Crans-Montana,Switzerland,Valais,Crans-Montana,46.3119,7.4828,https://www.epicpass.com/regions/europe/switzerland/crans-montana.aspx,Full Epic Pass access modeled as unlimited and unrestricted at this European Epic destination; official Epic Europe page identifies unlimited access for Epic Pass holders. Ticket-window/media-card procedures may apply.
Crested Butte,United States,Colorado,Crested Butte,38.8987,-106.965,https://www.skicb.com/,Full Epic Pass access modeled as unlimited and unrestricted at this Vail Resorts owned/operated destination for the 2026-2027 season; source page lists the resort among Epic Pass resort destinations. No full Epic Pass restricted peak dates modeled.
Crotched Mountain,United States,New Hampshire,Bennington,42.9982,-71.8781,https://www.crotchedmtn.com/,Full Epic Pass access modeled as unlimited and unrestricted at this Vail Resorts owned/operated destination for the 2026-2027 season; source page lists the resort among Epic Pass resort destinations. No full Epic Pass restricted peak dates modeled.
Crystal Mountain Resort,United States,Washington,Enumclaw,46.94772,-121.473,https://www.crystalmountainresort.com,Ikon destination/resort row sourced from official Ikon CMS; coordinates are Ikon-published destination/base coordinates where available.
Cypress Mountain,Canada,British Columbia,Vancouver,49.396,-123.20463139999998,https://www.cypressmountain.com,Ikon destination/resort row sourced from official Ikon CMS; coordinates are Ikon-published destination/base coordinates where available.
Deer Valley Resort,United States,Utah,Park City,40.6374,-111.4783,https://www.deervalley.com/,Skier-only resort; coordinate approximates Snow Park/base area.
Dollar Mountain,United States,Idaho,Sun Valley,43.69045,-114.34599,https://www.sunvalley.com/ikon,Physical member of the Sun Valley marketed/shared-access Ikon destination; coordinates from official Ikon CMS where available.
Eldora Mountain Resort,United States,Colorado,Nederland,39.9366134,-105.5884097,http://www.eldora.com/,Ikon destination/resort row sourced from official Ikon CMS; coordinates are Ikon-published destination/base coordinates where available.
Falls Creek,Australia,Victoria,Falls Creek,-36.8651,147.2777,https://www.skifalls.com.au/,Full Epic Pass access modeled as unlimited and unrestricted at this Australian Vail Resorts destination; official Epic Australia page states 2026/27 Epic Pass holders have access in the 2027 Southern Hemisphere winter season and must use/activate physical Australian access media.
Fernie Alpine Resort,Canada,British Columbia,Fernie,49.4628,-115.0856,https://skifernie.com/,Epic RCR partner resort; coordinates approximate base-area/main-lodge location.
Folgarida-Marilleva,Italy,Trentino,,46.3,10.865,https://www.skirama.it/,Physical/member ski area within Skirama Dolomiti; coordinates approximate resort/base area from map/geocoding references.
Furano Ski Resort,Japan,Japan,Hokkaido,43.19,142.19,https://www.princehotels.co.jp/ski/furano/winter/powderdream/,Ikon destination/resort row sourced from official Ikon CMS; coordinates are Ikon-published destination/base coordinates where available.
Giant Ski Area,Japan,Japan,Nagano,,,https://www.shigakogen-ski.or.jp/,Physical member of the Shiga Kogen Mountain Resort marketed/shared-access Ikon destination; coordinates from official Ikon CMS where available.
Grand Hirafu,Japan,Hokkaido,Abuta-gun,42.8047045,140.68749309999998,http://www.niseko.ne.jp/en/,Physical member of the Niseko United marketed/shared-access Ikon destination; coordinates from official Ikon CMS where available.
Grandvalira Resorts Andorra,Andorra,Andorra,Canillo,42.53588,1.58938,https://www.grandvalira.com/en/?season-switch,Placeholder physical/destination row pending member-area decomposition; do not use for fine-grained weather comparisons until split.
Granite Peak Resort,United States,Wisconsin,Wausau,44.93,-89.7,www.skigranitepeak.com,Ikon destination/resort row sourced from official Ikon CMS; coordinates are Ikon-published destination/base coordinates where available.
Hakuba 47 Winter Sports Park,Japan,Nagano,Hakuba/Otari,36.691,137.832,https://www.hakubavalley.com/,Physical Hakuba Valley member resort; coordinates approximate ski-area/base location from map/geocoding references.
Hakuba Cortina Snow Resort,Japan,Nagano,Hakuba/Otari,36.794,137.895,https://www.hakubavalley.com/,Physical Hakuba Valley member resort; coordinates approximate ski-area/base location from map/geocoding references.
Hakuba Happo-one Snow Resort,Japan,Nagano,Hakuba/Otari,36.702,137.835,https://www.hakubavalley.com/,Physical Hakuba Valley member resort; coordinates approximate ski-area/base location from map/geocoding references.
Hakuba Iwatake Snow Field,Japan,Nagano,Hakuba/Otari,36.727,137.858,https://www.hakubavalley.com/,Physical Hakuba Valley member resort; coordinates approximate ski-area/base location from map/geocoding references.
Hakuba Norikura Onsen Snow Resort,Japan,Nagano,Hakuba/Otari,36.774,137.887,https://www.hakubavalley.com/,Physical Hakuba Valley member resort; coordinates approximate ski-area/base location from map/geocoding references.
Hanazano,Japan,Hokkaido,Abuta-gun,42.8047045,140.68749309999998,http://www.niseko.ne.jp/en/,Physical member of the Niseko United marketed/shared-access Ikon destination; coordinates from official Ikon CMS where available.
Hasuike Ski Area,Japan,Japan,Nagano,,,https://www.shigakogen-ski.or.jp/,Physical member of the Shiga Kogen Mountain Resort marketed/shared-access Ikon destination; coordinates from official Ikon CMS where available.
Heavenly,United States,California/Nevada,South Lake Tahoe,38.9353,-119.94,https://www.skiheavenly.com/,Full Epic Pass access modeled as unlimited and unrestricted at this Vail Resorts owned/operated destination for the 2026-2027 season; source page lists the resort among Epic Pass resort destinations. No full Epic Pass restricted peak dates modeled.
Hidden Valley Resort (PA),United States,Pennsylvania,Hidden Valley,40.042,-79.256,https://www.hiddenvalleyresort.com/,Full Epic Pass access modeled as unlimited and unrestricted at this Vail Resorts owned/operated destination for the 2026-2027 season; source page lists the resort among Epic Pass resort destinations. No full Epic Pass restricted peak dates modeled.
Hidden Valley Ski Area (MO),United States,Missouri,Wildwood,38.5356,-90.6504,https://www.hiddenvalleyski.com/,Full Epic Pass access modeled as unlimited and unrestricted at this Vail Resorts owned/operated destination for the 2026-2027 season; source page lists the resort among Epic Pass resort destinations. No full Epic Pass restricted peak dates modeled.
Higashidateyama Ski Area,Japan,Japan,Nagano,,,https://www.shigakogen-ski.or.jp/,Physical member of the Shiga Kogen Mountain Resort marketed/shared-access Ikon destination; coordinates from official Ikon CMS where available.
Hintertux Glacier,Austria,Tyrol,,47.115,11.682,https://www.zillertal.at/en/,Physical/member ski area within Zillertal; coordinates approximate resort/base area from map/geocoding references.
Hochfügen,Austria,Tyrol,,47.27,11.775,https://www.zillertal.at/en/,Physical/member ski area within Zillertal; coordinates approximate resort/base area from map/geocoding references.
Hochzillertal,Austria,Tyrol,,47.293,11.872,https://www.zillertal.at/en/,Physical/member ski area within Zillertal; coordinates approximate resort/base area from map/geocoding references.
Hoppo Bunadaira Ski Area,Japan,Japan,Nagano,,,https://www.shigakogen-ski.or.jp/,Physical member of the Shiga Kogen Mountain Resort marketed/shared-access Ikon destination; coordinates from official Ikon CMS where available.
Hotham,Australia,Victoria,Mount Hotham,-36.9785,147.1345,https://www.mthotham.com.au/,Full Epic Pass access modeled as unlimited and unrestricted at this Australian Vail Resorts destination; official Epic Australia page states 2026/27 Epic Pass holders have access in the 2027 Southern Hemisphere winter season and must use/activate physical Australian access media.
Hunter Mountain,United States,New York,Hunter,42.2043,-74.2103,https://www.huntermtn.com/,Full Epic Pass access modeled as unlimited and unrestricted at this Vail Resorts owned/operated destination for the 2026-2027 season; source page lists the resort among Epic Pass resort destinations. No full Epic Pass restricted peak dates modeled.
Ichinose Diamond Ski Area,Japan,Japan,Nagano,36.7400066,138.5092768,https://www.shigakogen-ski.or.jp/,Physical member of the Shiga Kogen Mountain Resort marketed/shared-access Ikon destination; coordinates from official Ikon CMS where available.
Ichinose Family Ski Area,Japan,Japan,Nagano,36.7381252,138.5085781,https://www.shigakogen-ski.or.jp/,Physical member of the Shiga Kogen Mountain Resort marketed/shared-access Ikon destination; coordinates from official Ikon CMS where available.
Ichinose Yamanokami Ski Area,Japan,Japan,Nagano,,,https://www.shigakogen-ski.or.jp/,Physical member of the Shiga Kogen Mountain Resort marketed/shared-access Ikon destination; coordinates from official Ikon CMS where available.
Ischgl,Austria,Austria,Ischgl,47.009736,10.289257,https://www.ischgl.com/en/winter,Ikon destination/resort row sourced from official Ikon CMS; coordinates are Ikon-published destination/base coordinates where available.
Jack Frost,United States,Pennsylvania,White Haven,41.1105,-75.6554,https://www.jfbb.com/,Full Epic Pass access modeled as unlimited and unrestricted at this Vail Resorts owned/operated destination for the 2026-2027 season; source page lists the resort among Epic Pass resort destinations. No full Epic Pass restricted peak dates modeled.
Jackson Hole Mountain Resort,United States,Wyoming,Teton Village,43.5875,-110.8279,https://www.jacksonhole.com/,Physical resort at Teton Village; Ikon access is full Ikon Pass only.
Jigatake Snow Resort,Japan,Nagano,Hakuba/Otari,36.568,137.846,https://www.hakubavalley.com/,Physical Hakuba Valley member resort; coordinates approximate ski-area/base location from map/geocoding references.
June Mountain,United States,California,June Lake,37.7679169,-119.09062929999999,https://www.junemountain.com/,Ikon destination/resort row sourced from official Ikon CMS; coordinates are Ikon-published destination/base coordinates where available.
Kashimayari Snow Resort,Japan,Nagano,Hakuba/Otari,36.605,137.846,https://www.hakubavalley.com/,Physical Hakuba Valley member resort; coordinates approximate ski-area/base location from map/geocoding references.
Keystone,United States,Colorado,Keystone,39.6061,-105.9439,https://www.keystoneresort.com/,Full Epic Pass access modeled as unlimited and unrestricted at this Vail Resorts owned/operated destination for the 2026-2027 season; source page lists the resort among Epic Pass resort destinations. No full Epic Pass restricted peak dates modeled.
Kicking Horse Mountain Resort,Canada,British Columbia,Golden,51.2974,-117.0486,https://kickinghorseresort.com/,Epic RCR partner resort; coordinates approximate base-area/main-lodge location.
Killington,United States,Vermont,Killington,43.620867,-72.796267,http://www.killington.com/,Physical member of the Killington - Pico marketed/shared-access Ikon destination; coordinates from official Ikon CMS where available.
Kimberley Alpine Resort,Canada,British Columbia,Kimberley,49.688,-116.004,https://skikimberley.com/,Epic RCR partner resort; coordinates approximate base-area/main-lodge location.
Kirkwood,United States,California,Kirkwood,38.6848,-120.0652,https://www.kirkwood.com/,Full Epic Pass access modeled as unlimited and unrestricted at this Vail Resorts owned/operated destination for the 2026-2027 season; source page lists the resort among Epic Pass resort destinations. No full Epic Pass restricted peak dates modeled.
Kitzbühel,Austria,Austria,Kitzbühel,47.4492,12.3925,https://www.kitzski.at/en/,Ikon destination/resort row sourced from official Ikon CMS; coordinates are Ikon-published destination/base coordinates where available.
Kitzsteinhorn,Austria,Salzburg,,47.188,12.687,https://www.saalbach.com/,Physical/member ski area within Saalbach & Zell am See-Kaprun; coordinates approximate resort/base area from map/geocoding references.
Kronplatz/Plan de Corones,Italy,Italy,Castelrotto BZ,46.741,11.966,https://www.dolomitisuperski.com/en,Physical member of the Dolomiti Superski marketed/shared-access Ikon destination; coordinates from official Ikon CMS where available.
Kumanoyu Ski Area,Japan,Japan,Nagano,,,https://www.shigakogen-ski.or.jp/,Physical member of the Shiga Kogen Mountain Resort marketed/shared-access Ikon destination; coordinates from official Ikon CMS where available.
La Thuile - Espace San Bernardo,Italy,Italy,La Thuile,,,https://www.skilife.ski/en/,Physical member of the Valle d’Aosta marketed/shared-access Ikon destination; coordinates from official Ikon CMS where available.
Lake Louise Ski Resort,Canada,Alberta,Lake Louise,51.44321498486975,-116.16269980353756,https://www.skilouise.com/,Physical member of the SkiBig3 marketed/shared-access Ikon destination; coordinates from official Ikon CMS where available.
Laurel Mountain,United States,Pennsylvania,Boswell,40.1636,-79.1653,https://www.laurelmountainski.com/,Full Epic Pass access modeled as unlimited and unrestricted at this Vail Resorts owned/operated destination for the 2026-2027 season; source page lists the resort among Epic Pass resort destinations. No full Epic Pass restricted peak dates modeled.
Le Massif de Charlevoix,Canada,Quebec,Petite-Rivière-Saint-François,47.278652,-70.6096259,https://www.lemassif.com/en?utm_source=ikon&utm_medium=app,Ikon destination/resort row sourced from official Ikon CMS; coordinates are Ikon-published destination/base coordinates where available.
Lech Zürs am Arlberg,Austria,Tyrol/Vorarlberg,,47.21,10.142,https://www.skiarlberg.at/,Physical/member ski area within Ski Arlberg; coordinates approximate resort/base area from map/geocoding references.
Les Menuires,France,Savoie,,45.324,6.538,https://www.les3vallees.com/,Physical/member ski area within Les 3 Vallées; coordinates approximate resort/base area from map/geocoding references.
Liberty Mountain Resort,United States,Pennsylvania,Carroll Valley,39.7634,-77.3758,https://www.libertymountainresort.com/,Full Epic Pass access modeled as unlimited and unrestricted at this Vail Resorts owned/operated destination for the 2026-2027 season; source page lists the resort among Epic Pass resort destinations. No full Epic Pass restricted peak dates modeled.
Loon Mountain,United States,New Hampshire,Lincoln,44.0565389,-71.62957589999996,http://www.loonmtn.com/,Ikon destination/resort row sourced from official Ikon CMS; coordinates are Ikon-published destination/base coordinates where available.
Lutsen Mountains,United States,Minnesota,Lutsen,47.6637,-90.7136,www.lutsen.com,Ikon destination/resort row sourced from official Ikon CMS; coordinates are Ikon-published destination/base coordinates where available.
Mad River Mountain,United States,Ohio,Zanesfield,40.3186,-83.677,https://www.skimadriver.com/,Full Epic Pass access modeled as unlimited and unrestricted at this Vail Resorts owned/operated destination for the 2026-2027 season; source page lists the resort among Epic Pass resort destinations. No full Epic Pass restricted peak dates modeled.
Madonna di Campiglio,Italy,Trentino,,46.23,10.826,https://www.skirama.it/,Physical/member ski area within Skirama Dolomiti; coordinates approximate resort/base area from map/geocoding references.
Mammoth Mountain,United States,California,Mammoth Lakes,37.6376,-119.0273,https://www.mammothmountain.com/,Physical resort; official/USFS coordinates identify Mammoth Mountain recreation area.
Maruike Ski Area,Japan,Japan,Nagano,,,https://www.shigakogen-ski.or.jp/,Physical member of the Shiga Kogen Mountain Resort marketed/shared-access Ikon destination; coordinates from official Ikon CMS where available.
Mayrhofen,Austria,Tyrol,,47.166,11.863,https://www.zillertal.at/en/,Physical/member ski area within Zillertal; coordinates approximate resort/base area from map/geocoding references.
Megève Ski Area,France,France,Megève,45.8568,6.6185,https://forfait.megeve.com/hiver/en/ikon-pass/,Ikon destination/resort row sourced from official Ikon CMS; coordinates are Ikon-published destination/base coordinates where available.
Mona Yongpyong,South Korea,Pyeongchang,Balwangsan,37.646118,128.680663,https://monayongpyong.com/,Ikon destination/resort row sourced from official Ikon CMS; coordinates are Ikon-published destination/base coordinates where available.
Mont-Sainte-Anne,Canada,Quebec,Beaupré,47.075,-70.904,https://mont-sainte-anne.com/,Epic RCR partner resort; coordinates approximate base-area/main-lodge location.
Monte Bondone,Italy,Trentino,,46.014,11.043,https://www.skirama.it/,Physical/member ski area within Skirama Dolomiti; coordinates approximate resort/base area from map/geocoding references.
Monterosa Ski,Italy,Italy,Aosta Valley,,,https://www.skilife.ski/en/,Physical member of the Valle d’Aosta marketed/shared-access Ikon destination; coordinates from official Ikon CMS where available.
Mount Snow,United States,Vermont,West Dover,42.96,-72.92,https://www.mountsnow.com/,Full Epic Pass access modeled as unlimited and unrestricted at this Vail Resorts owned/operated destination for the 2026-2027 season; source page lists the resort among Epic Pass resort destinations. No full Epic Pass restricted peak dates modeled.
Mount Sunapee,United States,New Hampshire,Newbury,43.3317,-72.08,https://www.mountsunapee.com/,Full Epic Pass access modeled as unlimited and unrestricted at this Vail Resorts owned/operated destination for the 2026-2027 season; source page lists the resort among Epic Pass resort destinations. No full Epic Pass restricted peak dates modeled.
Mt Brighton,United States,Michigan,Brighton,42.54,-83.8115,https://www.mtbrighton.com/,Full Epic Pass access modeled as unlimited and unrestricted at this Vail Resorts owned/operated destination for the 2026-2027 season; source page lists the resort among Epic Pass resort destinations. No full Epic Pass restricted peak dates modeled.
Mt Buller,Australia,Australia,Mount Buller,-37.1467,146.4489,https://www.mtbuller.com.au/,Ikon destination/resort row sourced from official Ikon CMS; coordinates are Ikon-published destination/base coordinates where available.
Mt Hutt,New Zealand,New Zealand,Methven,-43.495543,171.536788,https://www.mthutt.co.nz/,"Physical member of the Coronet Peak, The Remarkables, Mt Hutt marketed/shared-access Ikon destination; coordinates from official Ikon CMS where available."
Mt. Bachelor,United States,Oregon,Bend,43.99717,-121.405,https://www.mtbachelor.com/,Ikon destination/resort row sourced from official Ikon CMS; coordinates are Ikon-published destination/base coordinates where available.
Mt. Norquay,Canada,Alberta,Banff,51.200305,-115.601637,https://banffnorquay.com/,Physical member of the SkiBig3 marketed/shared-access Ikon destination; coordinates from official Ikon CMS where available.
Mt.T,Japan,Japan,Gunma Prefecture,36.836498,138.962,https://tanigawadake-joch.com/en/mt-t/,Ikon destination/resort row sourced from official Ikon CMS; coordinates are Ikon-published destination/base coordinates where available.
Myoko Suginohara Ski Resort,Japan,Japan,Niigata Prefecture,36.51,138.09,https://www.princehotels.co.jp/ski/myoko/informations/ikonpass/,Ikon destination/resort row sourced from official Ikon CMS; coordinates are Ikon-published destination/base coordinates where available.
Méribel,France,Savoie,,45.397,6.566,https://www.les3vallees.com/,Physical/member ski area within Les 3 Vallées; coordinates approximate resort/base area from map/geocoding references.
Nakiska Ski Area,Canada,Alberta,Kananaskis,50.942,-115.151,https://skinakiska.com/,Epic RCR partner resort; coordinates approximate base-area/main-lodge location.
Nekoma Mountain,Japan,Japan,Fukushima,37.58707,140.0343,https://en.nekoma.co.jp/englp/,Ikon destination/resort row sourced from official Ikon CMS; coordinates are Ikon-published destination/base coordinates where available.
Nendaz,Switzerland,Valais,,46.182,7.291,https://www.verbier4vallees.ch/,Physical/member ski area within Verbier 4 Vallées; coordinates approximate resort/base area from map/geocoding references.
Niseko Village,Japan,Abuta-gun,Niseko-cho,42.8047045,140.68749309999998,http://www.niseko.ne.jp/en/,Physical member of the Niseko United marketed/shared-access Ikon destination; coordinates from official Ikon CMS where available.
Nishidateyama Ski Area,Japan,Japan,Nagano,,,https://www.shigakogen-ski.or.jp/,Physical member of the Shiga Kogen Mountain Resort marketed/shared-access Ikon destination; coordinates from official Ikon CMS where available.
Northstar California,United States,California,Truckee,39.2746,-120.121,https://www.northstarcalifornia.com/,Full Epic Pass access modeled as unlimited and unrestricted at this Vail Resorts owned/operated destination for the 2026-2027 season; source page lists the resort among Epic Pass resort destinations. No full Epic Pass restricted peak dates modeled.
Okemo,United States,Vermont,Ludlow,43.4016,-72.7178,https://www.okemo.com/,Full Epic Pass access modeled as unlimited and unrestricted at this Vail Resorts owned/operated destination for the 2026-2027 season; source page lists the resort among Epic Pass resort destinations. No full Epic Pass restricted peak dates modeled.
Okushiga Kogen Ski Area,Japan,Japan,Nagano,36.7800252,138.5229161,https://www.shigakogen-ski.or.jp/,Physical member of the Shiga Kogen Mountain Resort marketed/shared-access Ikon destination; coordinates from official Ikon CMS where available.
Orelle,France,Savoie,,45.21,6.55,https://www.les3vallees.com/,Physical/member ski area within Les 3 Vallées; coordinates approximate resort/base area from map/geocoding references.
Paganella,Italy,Trentino,,46.166,11.004,https://www.skirama.it/,Physical/member ski area within Skirama Dolomiti; coordinates approximate resort/base area from map/geocoding references.
Palisades Tahoe,United States,California,Olympic Valley,39.1969,-120.2357,https://www.palisadestahoe.com/,One of two primary base areas/mountains under the Palisades Tahoe destination; formerly Squaw Valley.
Panorama,Canada,British Columbia,Panorama,50.46,-116.238147,https://www.panoramaresort.com/,Ikon destination/resort row sourced from official Ikon CMS; coordinates are Ikon-published destination/base coordinates where available.
Paoli Peaks,United States,Indiana,Paoli,38.5564,-86.5125,https://www.paolipeaks.com/,Full Epic Pass access modeled as unlimited and unrestricted at this Vail Resorts owned/operated destination for the 2026-2027 season; source page lists the resort among Epic Pass resort destinations. No full Epic Pass restricted peak dates modeled.
Park City Mountain,United States,Utah,Park City,40.6514,-111.5080,https://www.parkcitymountain.com/,Vail Resorts destination including Park City Mountain Village and Canyons Village; treated as one connected resort/destination for this batch.
Pejo,Italy,Trentino,,46.355,10.674,https://www.skirama.it/,Physical/member ski area within Skirama Dolomiti; coordinates approximate resort/base area from map/geocoding references.
Perisher,Australia,New South Wales,Perisher Valley,-36.4054,148.4123,https://www.perisher.com.au/,Full Epic Pass access modeled as unlimited and unrestricted at this Australian Vail Resorts destination; official Epic Australia page states 2026/27 Epic Pass holders have access in the 2027 Southern Hemisphere winter season and must use/activate physical Australian access media.
Pico Mountain,United States,Vermont,Mendon,43.66388,-72.8432,https://www.picomountain.com/,Physical member of the Killington - Pico marketed/shared-access Ikon destination; coordinates from official Ikon CMS where available.
Pila,Italy,Italy,Aosta Valley,,,https://www.skilife.ski/en/,Physical member of the Valle d’Aosta marketed/shared-access Ikon destination; coordinates from official Ikon CMS where available.
Pinzolo,Italy,Trentino,,46.16,10.765,https://www.skirama.it/,Physical/member ski area within Skirama Dolomiti; coordinates approximate resort/base area from map/geocoding references.
Ponte di Legno-Tonale,Italy,Trentino,,46.258,10.584,https://www.skirama.it/,Physical/member ski area within Skirama Dolomiti; coordinates approximate resort/base area from map/geocoding references.
RED Mountain,Canada,British Columbia,Rossland,49.10241,-117.819,https://www.redresort.com,Ikon destination/resort row sourced from official Ikon CMS; coordinates are Ikon-published destination/base coordinates where available.
Revelstoke Mountain Resort,Canada,British Columbia,Revelstoke,50.9581531,-118.16279280000003,http://www.revelstokemountainresort.com/,Ikon destination/resort row sourced from official Ikon CMS; coordinates are Ikon-published destination/base coordinates where available.
Rio Pusteria – Bressanone,Italy,Italy,Castelrotto BZ,46.711,11.655,https://www.dolomitisuperski.com/en,Physical member of the Dolomiti Superski marketed/shared-access Ikon destination; coordinates from official Ikon CMS where available.
Roundtop Mountain Resort,United States,Pennsylvania,Lewisberry,40.1108,-76.9275,https://www.skiroundtop.com/,Full Epic Pass access modeled as unlimited and unrestricted at this Vail Resorts owned/operated destination for the 2026-2027 season; source page lists the resort among Epic Pass resort destinations. No full Epic Pass restricted peak dates modeled.
Rusutsu Resort,Japan,Hokkaido,Rusutsu,42.735,140.913,https://rusutsu.com/en/,Epic Japan partner resort; official page describes three separate mountains but access is modeled as a single resort target pending finer mountain split.
Saint-Martin-de-Belleville,France,Savoie,,45.381,6.505,https://www.les3vallees.com/,Physical/member ski area within Les 3 Vallées; coordinates approximate resort/base area from map/geocoding references.
San Martino di Castrozza/Rolle Pass,Italy,Italy,Castelrotto BZ,46.263,11.802,https://www.dolomitisuperski.com/en,Physical member of the Dolomiti Superski marketed/shared-access Ikon destination; coordinates from official Ikon CMS where available.
Schweitzer,United States,Idaho,Sandpoint,48.36691,-116.622,https://www.schweitzer.com/welcome-new-friends/,Ikon destination/resort row sourced from official Ikon CMS; coordinates are Ikon-published destination/base coordinates where available.
Seven Springs,United States,Pennsylvania,Seven Springs,40.0229,-79.2972,https://www.7springs.com/,Full Epic Pass access modeled as unlimited and unrestricted at this Vail Resorts owned/operated destination for the 2026-2027 season; source page lists the resort among Epic Pass resort destinations. No full Epic Pass restricted peak dates modeled.
Shibutoge Ski Area,Japan,Japan,Nagano,,,https://www.shigakogen-ski.or.jp/,Physical member of the Shiga Kogen Mountain Resort marketed/shared-access Ikon destination; coordinates from official Ikon CMS where available.
Sierra-at-Tahoe,United States,California,Twin Bridges,38.8002,-120.08089,https://www.sierraattahoe.com/,Ikon destination/resort row sourced from official Ikon CMS; coordinates are Ikon-published destination/base coordinates where available.
SilverStar Mountain,Canada,British Columbia,SilverStar Mountain,50.369723,-119.063611,https://www.skisilverstar.com/ ,Ikon destination/resort row sourced from official Ikon CMS; coordinates are Ikon-published destination/base coordinates where available.
Silvretta Montafon,Austria,Vorarlberg,Montafon,47.02,9.988,https://www.silvretta-montafon.at/,Epic European partner resort; coordinates approximate base-area/town access point.
Skicircus Saalbach Hinterglemm Leogang Fieberbrunn,Austria,Salzburg,,47.391,12.636,https://www.saalbach.com/,Physical/member ski area within Saalbach & Zell am See-Kaprun; coordinates approximate resort/base area from map/geocoding references.
Snow Creek,United States,Missouri,Weston,39.4675,-94.971,https://www.skisnowcreek.com/,Full Epic Pass access modeled as unlimited and unrestricted at this Vail Resorts owned/operated destination for the 2026-2027 season; source page lists the resort among Epic Pass resort destinations. No full Epic Pass restricted peak dates modeled.
Snow Summit,United States,California,Big Bear Lake,34.225915,-116.891162,https://www.bigbearmountainresort.com/,Physical member of the Big Bear Mountain Resort marketed/shared-access Ikon destination; coordinates from official Ikon CMS where available.
Snow Valley,United States,California,Running Springs,34.22511,-117.03584,https://www.bigbearmountainresort.com/,Ikon destination/resort row sourced from official Ikon CMS; coordinates are Ikon-published destination/base coordinates where available.
Snowbasin,United States,Utah,Huntsville,41.21614,-111.857,https://www.snowbasin.com/,Ikon destination/resort row sourced from official Ikon CMS; coordinates are Ikon-published destination/base coordinates where available.
Snowbird,United States,Utah,Snowbird,40.5807318,-111.6573737,https://www.snowbird.com/,Ikon destination/resort row sourced from official Ikon CMS; coordinates are Ikon-published destination/base coordinates where available.
Snowmass,United States,Colorado,Snowmass Village,39.2087,-106.9490,https://www.aspensnowmass.com/our-mountains/snowmass/,"One of four physical mountains marketed together as Aspen Snowmass; pass access is generally shared across Aspen Mountain, Snowmass, Aspen Highlands, and Buttermilk."
Snowriver Mountain Resort,United States,Michigan,Wakefield,46.27,-89.56,www.snowriver.com,Ikon destination/resort row sourced from official Ikon CMS; coordinates are Ikon-published destination/base coordinates where available.
Snowshoe Mountain,United States,West Virginia,Snowshoe,38.4101348,-79.99123279999998,https://www.snowshoemtn.com/,Ikon destination/resort row sourced from official Ikon CMS; coordinates are Ikon-published destination/base coordinates where available.
Solitude Mountain Resort,United States,Utah,Solitude,40.6187341,-111.5903965,https://solitudemountain.com/,Ikon destination/resort row sourced from official Ikon CMS; coordinates are Ikon-published destination/base coordinates where available.
Spieljoch,Austria,Tyrol,,47.347,11.849,https://www.zillertal.at/en/,Physical/member ski area within Zillertal; coordinates approximate resort/base area from map/geocoding references.
St. Anton am Arlberg,Austria,Tyrol/Vorarlberg,,47.129,10.268,https://www.skiarlberg.at/,Physical/member ski area within Ski Arlberg; coordinates approximate resort/base area from map/geocoding references.
St. Moritz,Switzerland,Switzerland,St. Moritz,46.295,9.5016,https://www.stmoritz.com/en/directory/sports/ski-snowboard/ikon-pass,Placeholder physical/destination row pending member-area decomposition; do not use for fine-grained weather comparisons until split.
Steamboat,United States,Colorado,Steamboat Springs,40.4572,-106.8045,https://www.steamboat.com/,Physical resort at Steamboat Springs; coordinate approximates resort base area.
Stevens Pass,United States,Washington,Skykomish,47.7448,-121.089,https://www.stevenspass.com/,Full Epic Pass access modeled as unlimited and unrestricted at this Vail Resorts owned/operated destination for the 2026-2027 season; source page lists the resort among Epic Pass resort destinations. No full Epic Pass restricted peak dates modeled.
Stoneham Mountain Resort,Canada,Quebec,Stoneham-et-Tewkesbury,47.0314,-71.384,https://ski-stoneham.com/,Epic RCR partner resort; coordinates approximate base-area/main-lodge location.
Stowe,United States,Vermont,Stowe,44.529,-72.7816,https://www.stowe.com/,Full Epic Pass access modeled as unlimited and unrestricted at this Vail Resorts owned/operated destination for the 2026-2027 season; source page lists the resort among Epic Pass resort destinations. No full Epic Pass restricted peak dates modeled.
Stratton,United States,Vermont,Stratton Mountain,43.11344,-72.9081,https://www.stratton.com/,Ikon destination/resort row sourced from official Ikon CMS; coordinates are Ikon-published destination/base coordinates where available.
Sugarbush Resort,United States,Vermont,Warren,44.1359019,-72.89441390000002,http://www.sugarbush.com/,Ikon destination/resort row sourced from official Ikon CMS; coordinates are Ikon-published destination/base coordinates where available.
Sugarloaf,United States,Maine,Carrabassett Valley,45.0541811,-70.30851089999999,http://www.sugarloaf.com,Ikon destination/resort row sourced from official Ikon CMS; coordinates are Ikon-published destination/base coordinates where available.
Summit Central / Summit West / Summit East,United States,Washington,Snoqualmie Pass,47.401633,-121.420173,http://www.summitatsnoqualmie.com,Physical member of the The Summit at Snoqualmie marketed/shared-access Ikon destination; coordinates from official Ikon CMS where available.
Sun Peaks Resort,Canada,British Columbia,Sun Peaks,50.88488,-119.88595,https://www.sunpeaksresort.com/ikon-pass/,Ikon destination/resort row sourced from official Ikon CMS; coordinates are Ikon-published destination/base coordinates where available.
Sun Valley,United States,Idaho,Sun Valley,43.666651,-114.390069,https://www.sunvalley.com/ikon,Physical member of the Sun Valley marketed/shared-access Ikon destination; coordinates from official Ikon CMS where available.
Sun Valley Ski Area,Japan,Japan,Nagano,36.7164022,138.4782421,https://www.shigakogen-ski.or.jp/,Physical member of the Shiga Kogen Mountain Resort marketed/shared-access Ikon destination; coordinates from official Ikon CMS where available.
Sunday River,United States,Maine,Newry,44.4669465,-70.84651939999998,http://www.sundayriver.com/,Ikon destination/resort row sourced from official Ikon CMS; coordinates are Ikon-published destination/base coordinates where available.
Sölden,Austria,Tyrol,Sölden,46.965,11.01,https://www.soelden.com/,Epic European partner resort; coordinates approximate base-area/town access point.
Takamagahara Mammoth Ski Area,Japan,Japan,Nagano,,,https://www.shigakogen-ski.or.jp/,Physical member of the Shiga Kogen Mountain Resort marketed/shared-access Ikon destination; coordinates from official Ikon CMS where available.
Tannenomori Okojo Ski Area,Japan,Japan,Nagano,,,https://www.shigakogen-ski.or.jp/,Physical member of the Shiga Kogen Mountain Resort marketed/shared-access Ikon destination; coordinates from official Ikon CMS where available.
Taos Ski Valley,United States,New Mexico,Taos Ski Valley,36.59572,-105.45054800000003,https://www.skitaos.com/,Ikon destination/resort row sourced from official Ikon CMS; coordinates are Ikon-published destination/base coordinates where available.
Telluride,United States,Colorado,Telluride,37.9369,-107.8464,https://tellurideskiresort.com/,Epic partner resort; coordinates approximate Mountain Village/base area.
Terakoya Ski Area,Japan,Japan,Nagano,36.7311452,138.5214961,https://www.shigakogen-ski.or.jp/,Physical member of the Shiga Kogen Mountain Resort marketed/shared-access Ikon destination; coordinates from official Ikon CMS where available.
The Highlands,United States,Michigan,Harbor Springs,45.4692553,-84.93534899999997,https://www.highlandsharborsprings.com/,Ikon destination/resort row sourced from official Ikon CMS; coordinates are Ikon-published destination/base coordinates where available.
The Remarkables,New Zealand,New Zealand,Queenstown,-45.055427,168.815045,https://www.theremarkables.co.nz/,"Physical member of the Coronet Peak, The Remarkables, Mt Hutt marketed/shared-access Ikon destination; coordinates from official Ikon CMS where available."
Thredbo,Australia,Australia,Thredbo,-36.5016371,148.3094516,https://www.thredbo.com.au/,Ikon destination/resort row sourced from official Ikon CMS; coordinates are Ikon-published destination/base coordinates where available.
Thyon,Switzerland,Valais,,46.18,7.386,https://www.verbier4vallees.ch/,Physical/member ski area within Verbier 4 Vallées; coordinates approximate resort/base area from map/geocoding references.
Tremblant,Canada,Quebec,Mont-Tremblant,46.2098078,-74.58536070000002,https://www.tremblant.ca/,Ikon destination/resort row sourced from official Ikon CMS; coordinates are Ikon-published destination/base coordinates where available.
Tsugaike Mountain Resort,Japan,Nagano,Hakuba/Otari,36.752,137.873,https://www.hakubavalley.com/,Physical Hakuba Valley member resort; coordinates approximate ski-area/base location from map/geocoding references.
Vail,United States,Colorado,Vail,39.6403,-106.3742,https://www.vail.com/,"Approximate Vail Village/base-area coordinate; official town GIS publishes town coordinates, while resort-specific base coordinate should be revalidated if precision matters."
Val Gardena/Alpe di Siusi,Italy,Italy,Castelrotto BZ,46.557,11.756,https://www.dolomitisuperski.com/en,Physical member of the Dolomiti Superski marketed/shared-access Ikon destination; coordinates from official Ikon CMS where available.
Val Thorens,France,Savoie,,45.298,6.583,https://www.les3vallees.com/,Physical/member ski area within Les 3 Vallées; coordinates approximate resort/base area from map/geocoding references.
Val di Fassa/Carezza,Italy,Italy,Castelrotto BZ,46.43,11.684,https://www.dolomitisuperski.com/en,Physical member of the Dolomiti Superski marketed/shared-access Ikon destination; coordinates from official Ikon CMS where available.
Val di Fiemme/Obereggen,Italy,Italy,Castelrotto BZ,46.354,11.549,https://www.dolomitisuperski.com/en,Physical member of the Dolomiti Superski marketed/shared-access Ikon destination; coordinates from official Ikon CMS where available.
Valle Nevado,Chile,Región Metropolitana,Lo Barnechea,-33.3602931,-70.30147620000002,https://www.vallenevado.com/en/,Ikon destination/resort row sourced from official Ikon CMS; coordinates are Ikon-published destination/base coordinates where available.
Verbier,Switzerland,Valais,,46.096,7.229,https://www.verbier4vallees.ch/,Physical/member ski area within Verbier 4 Vallées; coordinates approximate resort/base area from map/geocoding references.
Veysonnaz,Switzerland,Valais,,46.196,7.338,https://www.verbier4vallees.ch/,Physical/member ski area within Verbier 4 Vallées; coordinates approximate resort/base area from map/geocoding references.
Warth-Schröcken,Austria,Tyrol/Vorarlberg,,47.258,10.184,https://www.skiarlberg.at/,Physical/member ski area within Ski Arlberg; coordinates approximate resort/base area from map/geocoding references.
Whistler Mountain,Canada,British Columbia,Whistler,50.0615,-122.9574,https://www.whistlerblackcomb.com/,Physical mountain within Whistler Blackcomb; coordinates approximate main ski-area/base or mountain reference point.
White Resort Hakuba Sanosaka,Japan,Nagano,Hakuba/Otari,36.645,137.847,https://www.hakubavalley.com/,Physical Hakuba Valley member resort; coordinates approximate ski-area/base location from map/geocoding references.
Whitetail Resort,United States,Pennsylvania,Mercersburg,39.7417,-77.9336,https://www.skiwhitetail.com/,Full Epic Pass access modeled as unlimited and unrestricted at this Vail Resorts owned/operated destination for the 2026-2027 season; source page lists the resort among Epic Pass resort destinations. No full Epic Pass restricted peak dates modeled.
Wildcat Mountain,United States,New Hampshire,Pinkham Notch,44.2643,-71.2387,https://www.skiwildcat.com/,Full Epic Pass access modeled as unlimited and unrestricted at this Vail Resorts owned/operated destination for the 2026-2027 season; source page lists the resort among Epic Pass resort destinations. No full Epic Pass restricted peak dates modeled.
Wilmot Mountain,United States,Wisconsin,Wilmot,42.4994,-88.1886,https://www.wilmotmountain.com/,Full Epic Pass access modeled as unlimited and unrestricted at this Vail Resorts owned/operated destination for the 2026-2027 season; source page lists the resort among Epic Pass resort destinations. No full Epic Pass restricted peak dates modeled.
Winter Park Resort,United States,Colorado,Winter Park,39.886822,-105.76248980000003,https://www.winterparkresort.com/,Ikon destination/resort row sourced from official Ikon CMS; coordinates are Ikon-published destination/base coordinates where available.
Yakebitaiyama Ski Area,Japan,Japan,Nagano,,,https://www.shigakogen-ski.or.jp/,Physical member of the Shiga Kogen Mountain Resort marketed/shared-access Ikon destination; coordinates from official Ikon CMS where available.
Yokoteyama Ski Area,Japan,Japan,Nagano,,,https://www.shigakogen-ski.or.jp/,Physical member of the Shiga Kogen Mountain Resort marketed/shared-access Ikon destination; coordinates from official Ikon CMS where available.
Yunding Snow Park,China,China,Hebei Province,40.565488,115.2681,http://www.secretgardenresorts.com,Ikon destination/resort row sourced from official Ikon CMS; coordinates are Ikon-published destination/base coordinates where available.
Zao Onsen Ski Resort,Japan,Japan,Yamagata,38.1672,140.3942,https://zao-spa.or.jp/english/,Ikon destination/resort row sourced from official Ikon CMS; coordinates are Ikon-published destination/base coordinates where available.
Zermatt Matterhorn,Switzerland,Switzerland,Zermatt,46.0257,7.751637,https://www.matterhornparadise.ch/en,Ikon destination/resort row sourced from official Ikon CMS; coordinates are Ikon-published destination/base coordinates where available.
Zillertal Arena,Austria,Tyrol,,47.23,12.14,https://www.zillertal.at/en/,Physical/member ski area within Zillertal; coordinates approximate resort/base area from map/geocoding references.
